district,lat,lon
Ville-Marie,45.5088,-73.5619
Plateau-Mont-Royal,45.5275,-73.5801
Rosemont–La Petite-Patrie,45.5581,-73.5837
Le Sud-Ouest,45.4782,-73.5863
Verdun,45.4591,-73.5673
Côte-des-Neiges–NDG,45.4977,-73.6306
Ahuntsic-Cartierville,45.5508,-73.6767
Saint-Laurent,45.5095,-73.7039
Villeray–Saint-Michel–Parc-Extension,45.5564,-73.6251
Mercier–Hochelaga-Maisonneuve,45.5601,-73.5345
Rivière-des-Prairies–Pointe-aux-Trembles,45.6535,-73.4989